[
{"city":"阿布贾","value":"184","lat":"9.083333333","lng":"7.533333333"},
{"city":"阿布扎比","value":"50","lat":"24.46666667","lng":"54.36666667"},
{"city":"阿尔及尔","value":"148","lat":"36.75","lng":"3.05"},
{"city":"阿加纳","value":"86","lat":"13.46666667","lng":"144.7333333"},
{"city":"阿克拉","value":"88","lat":"5.55","lng":"-0.216666667"},
{"city":"阿洛菲","value":"125","lat":"-19.01666667","lng":"-169.9166667"},
{"city":"阿姆斯特丹","value":"115","lat":"52.35","lng":"4.916666667"},
{"city":"阿皮亚","value":"122","lat":"-13.81666667","lng":"-171.7666667"},
{"city":"阿什哈巴德","value":"40","lat":"37.95","lng":"58.38333333"},
{"city":"阿斯马拉","value":"88","lat":"15.33333333","lng":"38.93333333"},
{"city":"阿斯塔纳","value":"115","lat":"51.16666667","lng":"71.41666667"},
{"city":"阿瓦鲁阿","value":"27","lat":"-21.2","lng":"-159.7666667"},
{"city":"阿尤恩","value":"155","lat":"27.153611","lng":"-13.203333"},
{"city":"埃里温","value":"31","lat":"40.16666667","lng":"44.5"},
{"city":"爱德华国王角","value":"128","lat":"-54.283333","lng":"-36.5"},
{"city":"安道尔城","value":"144","lat":"42.5","lng":"1.516666667"},
{"city":"安卡拉","value":"105","lat":"39.93333333","lng":"32.86666667"},
{"city":"安曼","value":"136","lat":"31.95","lng":"35.93333333"},
{"city":"奥拉涅斯塔德","value":"166","lat":"12.51666667","lng":"-70.03333333"},
{"city":"奥斯陆","value":"175","lat":"59.91666667","lng":"10.75"},
{"city":"澳门","value":"54","lat":"22.198951","lng":"113.54909"},
{"city":"巴格达","value":"139","lat":"33.33333333","lng":"44.4"},
{"city":"巴库","value":"157","lat":"40.38333333","lng":"49.86666667"},
{"city":"巴黎","value":"149","lat":"48.86666667","lng":"2.333333333"},
{"city":"巴马科","value":"128","lat":"12.65","lng":"-8"},
{"city":"巴拿马城","value":"123","lat":"8.966666667","lng":"-79.53333333"},
{"city":"巴斯特尔","value":"113","lat":"17.3","lng":"-62.71666667"},
{"city":"巴西利亚","value":"94","lat":"-15.78333333","lng":"-47.91666667"},
{"city":"柏林","value":"41","lat":"52.51666667","lng":"13.4"},
{"city":"班吉","value":"75","lat":"4.366666667","lng":"18.58333333"},
{"city":"班珠尔","value":"110","lat":"13.45","lng":"-16.56666667"},
{"city":"北京","value":"52","lat":"39.91666667","lng":"116.3833333"},
{"city":"北京","value":"196","lat":"39.904989","lng":"116.405285"},
{"city":"贝尔格莱德","value":"147","lat":"44.83333333","lng":"20.5"},
{"city":"贝尔莫潘","value":"71","lat":"17.25","lng":"-88.76666667"},
{"city":"贝鲁特","value":"81","lat":"33.86666667","lng":"35.5"},
{"city":"比勒陀利亚","value":"103","lat":"-25.7","lng":"28.21666667"},
{"city":"比绍","value":"44","lat":"11.85","lng":"-15.58333333"},
{"city":"比什凯克","value":"97","lat":"42.86666667","lng":"74.6"},
{"city":"波德戈里察","value":"64","lat":"42.43333333","lng":"19.26666667"},
{"city":"波多诺伏","value":"150","lat":"6.483333333","lng":"2.616666667"},
{"city":"伯尔尼","value":"147","lat":"46.91666667","lng":"7.466666667"},
{"city":"布达佩斯","value":"30","lat":"47.5","lng":"19.08333333"},
{"city":"布加勒斯特","value":"60","lat":"44.43333333","lng":"26.1"},
{"city":"布拉柴维尔","value":"125","lat":"-4.25","lng":"15.28333333"},
{"city":"布拉迪斯拉发","value":"59","lat":"48.15","lng":"17.11666667"},
{"city":"布拉格","value":"131","lat":"50.08333333","lng":"14.46666667"},
{"city":"布里奇顿","value":"147","lat":"13.1","lng":"-59.61666667"},
{"city":"布鲁塞尔","value":"35","lat":"50.83333333","lng":"4.333333333"},
{"city":"布琼布拉","value":"61","lat":"-3.366666667","lng":"29.35"},
{"city":"布宜诺斯艾利斯","value":"118","lat":"-34.58333333","lng":"-58.66666667"},
{"city":"成都","value":"65","lat":"30.659462","lng":"104.065735"},
{"city":"达喀尔","value":"59","lat":"14.73333333","lng":"-17.63333333"},
{"city":"达卡","value":"122","lat":"23.71666667","lng":"90.4"},
{"city":"达累斯萨拉姆","value":"122","lat":"-6.8","lng":"39.28333333"},
{"city":"大马士革","value":"82","lat":"33.5","lng":"36.3"},
{"city":"大特克岛","value":"61","lat":"21.46666667","lng":"-71.13333333"},
{"city":"道格拉斯","value":"106","lat":"54.15","lng":"-4.483333333"},
{"city":"德黑兰","value":"164","lat":"35.7","lng":"51.41666667"},
{"city":"的黎波里","value":"80","lat":"32.88333333","lng":"13.16666667"},
{"city":"地拉那","value":"30","lat":"41.31666667","lng":"19.81666667"},
{"city":"帝力","value":"74","lat":"-8.583333333","lng":"125.6"},
{"city":"第比利斯","value":"132","lat":"41.68333333","lng":"44.83333333"},
{"city":"东京","value":"113","lat":"35.68333333","lng":"139.75"},
{"city":"都柏林","value":"4","lat":"53.31666667","lng":"-6.233333333"},
{"city":"杜尚别","value":"133","lat":"38.55","lng":"68.76666667"},
{"city":"多哈","value":"103","lat":"25.28333333","lng":"51.53333333"},
{"city":"恩贾梅纳","value":"169","lat":"12.1","lng":"15.03333333"},
{"city":"法兰西港","value":"101","lat":"-49.35","lng":"70.216667"},
{"city":"飞鱼湾","value":"17","lat":"-10.41666667","lng":"105.7166667"},
{"city":"菲利普斯堡","value":"84","lat":"18.01666667","lng":"-63.03333333"},
{"city":"弗里敦","value":"65","lat":"8.483333333","lng":"-13.23333333"},
{"city":"福州","value":"138","lat":"26.075302","lng":"119.306239"},
{"city":"戈特霍布","value":"98","lat":"64.18333333","lng":"-51.75"},
{"city":"哥本哈根","value":"99","lat":"55.66666667","lng":"12.58333333"},
{"city":"广州","value":"92","lat":"23.125178","lng":"113.280637"},
{"city":"贵阳","value":"212","lat":"26.578343","lng":"106.713478"},
{"city":"哈博罗内","value":"39","lat":"-24.63333333","lng":"25.9"},
{"city":"哈尔滨","value":"233","lat":"45.756967","lng":"126.642464"},
{"city":"哈尔格萨","value":"10","lat":"9.55","lng":"44.05"},
{"city":"哈拉雷","value":"47","lat":"-17.81666667","lng":"31.03333333"},
{"city":"哈瓦那","value":"136","lat":"23.11666667","lng":"-82.35"},
{"city":"海口","value":"14","lat":"20.031971","lng":"110.33119"},
{"city":"汉密尔顿","value":"33","lat":"32.28333333","lng":"-64.78333333"},
{"city":"杭州","value":"125","lat":"30.287459","lng":"120.153576"},
{"city":"合肥","value":"36","lat":"31.86119","lng":"117.283042"},
{"city":"河内","value":"32","lat":"21.03333333","lng":"105.85"},
{"city":"赫尔辛基","value":"55","lat":"60.16666667","lng":"24.93333333"}
]